stop_id,stop_code,stop_name,stop_desc,stop_lat,stop_lon,zone_id,stop_url,location_type,parent_station,stop_timezone,wheelchair_boarding
101,G01,渋谷,,35.659097,139.702673,101,,0,,,
102,G02,表参道,,35.665042,139.712473,102,,0,,,
103,G03,外苑前,,35.670375,139.717825,103,,0,,,
104,G04,青山一丁目,,35.67279,139.724145,104,,0,,,
105,G05,赤坂見附,,35.676845,139.737347,105,,0,,,
106,G06,溜池山王,,35.671511,139.741943,106,,0,,,
107,G07,虎ノ門,,35.67016,139.75012,107,,0,,,
108,G08,新橋,,35.667382,139.758512,108,,0,,,
109,G09,銀座,,35.6715,139.765366,109,,0,,,
110,G10,京橋,,35.676704,139.77011,110,,0,,,
111,G11,日本橋,,35.681879,139.773335,111,,0,,,
112,G12,三越前,,35.687173,139.773582,112,,0,,,
113,G13,神田,,35.693715,139.77089,113,,0,,,
114,G14,末広町,,35.70278,139.771762,114,,0,,,
115,G15,上野広小路,,35.707765,139.773011,115,,0,,,
116,G16,上野,,35.711835,139.775625,116,,0,,,
117,G17,稲荷町,,35.711389,139.78221,117,,0,,,
118,G18,田原町,,35.709917,139.790306,118,,0,,,
119,G19,浅草,,35.710746,139.797774,119,,0,,,
201,M01,荻窪,,35.704175,139.61976,201,,0,,,
202,M02,南阿佐ケ谷,,35.699455,139.635575,202,,0,,,
203,M03,新高円寺,,35.69786,139.64851,203,,0,,,
204,M04,東高円寺,,35.697965,139.658295,204,,0,,,
205,M05,新中野,,35.697475,139.66951,205,,0,,,
206,Mb03,方南町,,35.683515,139.657935,206,,0,,,
207,Mb04,中野富士見町,,35.69082,139.668155,207,,0,,,
208,Mb05,中野新橋,,35.691685,139.674001,208,,0,,,
209,M06,中野坂上,,35.697085,139.682205,209,,0,,,
210,M07,西新宿,,35.694515,139.69256,210,,0,,,
211,M08,新宿,,35.692452,139.700548,211,,0,,,
212,M09,新宿三丁目,,35.69118,139.70421,212,,0,,,
213,M10,新宿御苑前,,35.688525,139.710915,213,,0,,,
214,M11,四谷三丁目,,35.687835,139.719325,214,,0,,,
215,M12,四ツ谷,,35.684197,139.730047,215,,0,,,
216,M13,赤坂見附,,35.676845,139.737347,216,,0,,,
217,M14,国会議事堂前,,35.674926,139.745473,217,,0,,,
218,M15,霞ケ関,,35.674235,139.75268,218,,0,,,
219,M16,銀座,,35.673159,139.763876,219,,0,,,
220,M17,東京,,35.681935,139.7648,220,,0,,,
221,M18,大手町,,35.686875,139.766203,221,,0,,,
222,M19,淡路町,,35.69487,139.767455,222,,0,,,
223,M20,御茶ノ水,,35.70043,139.764405,223,,0,,,
224,M21,本郷三丁目,,35.706726,139.760154,224,,0,,,
225,M22,後楽園,,35.707307,139.750861,225,,0,,,
226,M23,茗荷谷,,35.7172,139.736895,226,,0,,,
227,M24,新大塚,,35.72613,139.729354,227,,0,,,
228,M25,池袋,,35.730345,139.71115,228,,0,,,
301,H01,中目黒,,35.644108,139.698833,301,,0,,,
302,H02,恵比寿,,35.64704,139.708701,302,,0,,,
303,H03,広尾,,35.651499,139.722209,303,,0,,,
304,H04,六本木,,35.6628,139.731155,304,,0,,,
305,H05,神谷町,,35.662625,139.744725,305,,0,,,
306,H06,虎ノ門ヒルズ,,35.667309,139.747738,306,,0,,,
307,H07,霞ケ関,,35.673875,139.75106,307,,0,,,
308,H08,日比谷,,35.674271,139.7606,308,,0,,,
309,H09,銀座,,35.671983,139.764007,309,,0,,,
310,H10,東銀座,,35.669129,139.767633,310,,0,,,
311,H11,築地,,35.667928,139.772473,311,,0,,,
312,H12,八丁堀,,35.675368,139.777334,312,,0,,,
313,H13,茅場町,,35.679078,139.779619,313,,0,,,
314,H14,人形町,,35.686259,139.782339,314,,0,,,
315,H15,小伝馬町,,35.690423,139.778758,315,,0,,,
316,H16,秋葉原,,35.697965,139.775529,316,,0,,,
317,H17,仲御徒町,,35.706655,139.77619,317,,0,,,
318,H18,上野,,35.711558,139.777061,318,,0,,,
319,H19,入谷,,35.720565,139.784466,319,,0,,,
320,H20,三ノ輪,,35.729285,139.791165,320,,0,,,
321,H21,南千住,,35.73231,139.79878,321,,0,,,
322,H22,北千住,,35.749904,139.805591,322,,0,,,
401,T01,中野,,35.70574,139.665605,401,,0,,,
402,T02,落合,,35.710635,139.685965,402,,0,,,
403,T03,高田馬場,,35.71328,139.705045,403,,0,,,
404,T04,早稲田,,35.70568,139.72219,404,,0,,,
405,T05,神楽坂,,35.703865,139.73452,405,,0,,,
406,T06,飯田橋,,35.701403,139.746521,406,,0,,,
407,T07,九段下,,35.696091,139.751265,407,,0,,,
408,T08,竹橋,,35.69044,139.75767,408,,0,,,
409,T09,大手町,,35.684697,139.76603,409,,0,,,
410,T10,日本橋,,35.682376,139.774101,410,,0,,,
411,T11,茅場町,,35.680346,139.77927,411,,0,,,
412,T12,門前仲町,,35.671892,139.796099,412,,0,,,
413,T13,木場,,35.669356,139.807115,413,,0,,,
414,T14,東陽町,,35.66959,139.81768,414,,0,,,
415,T15,南砂町,,35.668415,139.831695,415,,0,,,
416,T16,西葛西,,35.664562,139.8596,416,,0,,,
417,T17,葛西,,35.663616,139.87253,417,,0,,,
418,T18,浦安,,35.665903,139.893236,418,,0,,,
419,T19,南行徳,,35.672729,139.902276,419,,0,,,
420,T20,行徳,,35.68262,139.914185,420,,0,,,
421,T21,妙典,,35.691014,139.924286,421,,0,,,
422,T22,原木中山,,35.7033,139.941915,422,,0,,,
423,T23,西船橋,,35.707174,139.958767,423,,0,,,
501,C01,代々木上原,,35.669017,139.679884,501,,0,,,
502,C02,代々木公園,,35.669104,139.689791,502,,0,,,
503,C03,明治神宮前〈原宿〉,,35.669123,139.703944,503,,0,,,
504,C04,表参道,,35.665652,139.711346,504,,0,,,
505,C05,乃木坂,,35.666592,139.726229,505,,0,,,
506,C06,赤坂,,35.672104,139.736413,506,,0,,,
507,C07,国会議事堂前,,35.673566,139.743188,507,,0,,,
508,C08,霞ケ関,,35.67256,139.75177,508,,0,,,
509,C09,日比谷,,35.673955,139.758765,509,,0,,,
510,C10,二重橋前〈丸の内〉,,35.680505,139.76178,510,,0,,,
511,C11,大手町,,35.68525,139.763285,511,,0,,,
512,C12,新御茶ノ水,,35.696925,139.76545,512,,0,,,
513,C13,湯島,,35.706805,139.769981,513,,0,,,
514,C14,根津,,35.717325,139.76575,514,,0,,,
515,C15,千駄木,,35.725746,139.763303,515,,0,,,
516,C16,西日暮里,,35.732355,139.76689,516,,0,,,
517,C17,町屋,,35.742068,139.780047,517,,0,,,
518,C18,北千住,,35.7492,139.804403,518,,0,,,
519,C19,綾瀬,,35.762285,139.82489,519,,0,,,
520,C20,北綾瀬,,35.77689,139.832095,520,,0,,,
601,Y01,和光市,,35.78835,139.612865,601,,0,,,
602,Y02,地下鉄成増,,35.77674,139.63117,602,,0,,,
603,Y03,地下鉄赤塚,,35.769981,139.644,603,,0,,,
604,Y04,平和台,,35.757555,139.6543,604,,0,,,
605,Y05,氷川台,,35.74962,139.66547,605,,0,,,
606,Y06,小竹向原,,35.743395,139.67952,606,,0,,,
607,Y07,千川,,35.738175,139.6894,607,,0,,,
608,Y08,要町,,35.733215,139.69848,608,,0,,,
609,Y09,池袋,,35.729185,139.710885,609,,0,,,
610,Y10,東池袋,,35.72595,139.718865,610,,0,,,
611,Y11,護国寺,,35.71918,139.72745,611,,0,,,
612,Y12,江戸川橋,,35.709295,139.73413,612,,0,,,
613,Y13,飯田橋,,35.701342,139.743207,613,,0,,,
614,Y14,市ケ谷,,35.692576,139.736891,614,,0,,,
615,Y15,麴町,,35.684785,139.73735,615,,0,,,
616,Y16,永田町,,35.677895,139.741773,616,,0,,,
617,Y17,桜田門,,35.677459,139.751886,617,,0,,,
618,Y18,有楽町,,35.675973,139.762286,618,,0,,,
619,Y19,銀座一丁目,,35.674519,139.766786,619,,0,,,
620,Y20,新富町,,35.670529,139.773594,620,,0,,,
621,Y21,月島,,35.664711,139.784405,621,,0,,,
622,Y22,豊洲,,35.655153,139.795994,622,,0,,,
623,Y23,辰巳,,35.645775,139.81033,623,,0,,,
624,Y24,新木場,,35.64578,139.826605,624,,0,,,
701,Z01,渋谷,,35.65945,139.701035,701,,0,,,
702,Z02,表参道,,35.665143,139.712383,702,,0,,,
703,Z03,青山一丁目,,35.672956,139.724075,703,,0,,,
704,Z04,永田町,,35.678407,139.738865,704,,0,,,
705,Z05,半蔵門,,35.68538,139.741695,705,,0,,,
706,Z06,九段下,,35.695501,139.751117,706,,0,,,
707,Z07,神保町,,35.696021,139.75756,707,,0,,,
708,Z08,大手町,,35.686745,139.764905,708,,0,,,
709,Z09,三越前,,35.684928,139.77308,709,,0,,,
710,Z10,水天宮前,,35.683,139.785171,710,,0,,,
711,Z11,清澄白河,,35.682119,139.799841,711,,0,,,
712,Z12,住吉,,35.688704,139.815667,712,,0,,,
713,Z13,錦糸町,,35.697441,139.814957,713,,0,,,
714,Z14,押上〈スカイツリー前〉,,35.708467,139.813735,714,,0,,,
801,N01,目黒,,35.632485,139.71566,801,,0,,,
802,N02,白金台,,35.63777,139.72586,802,,0,,,
803,N03,白金高輪,,35.643145,139.734285,803,,0,,,
804,N04,麻布十番,,35.65481,139.737045,804,,0,,,
805,N05,六本木一丁目,,35.665075,139.7389,805,,0,,,
806,N06,溜池山王,,35.673091,139.741294,806,,0,,,
807,N07,永田町,,35.678338,139.739288,807,,0,,,
808,N08,四ツ谷,,35.686082,139.72968,808,,0,,,
809,N09,市ケ谷,,35.692894,139.736324,809,,0,,,
810,N10,飯田橋,,35.701532,139.743716,810,,0,,,
811,N11,後楽園,,35.70839,139.751786,811,,0,,,
812,N12,東大前,,35.718014,139.75788,812,,0,,,
813,N13,本駒込,,35.724365,139.753812,813,,0,,,
814,N14,駒込,,35.735913,139.746909,814,,0,,,
815,N15,西ケ原,,35.745945,139.74226,815,,0,,,
816,N16,王子,,35.75447,139.737362,816,,0,,,
817,N17,王子神谷,,35.765292,139.735641,817,,0,,,
818,N18,志茂,,35.778025,139.7325,818,,0,,,
819,N19,赤羽岩淵,,35.783355,139.72211,819,,0,,,
901,F01,和光市,,35.78835,139.612865,901,,0,,,
902,F02,地下鉄成増,,35.77674,139.63117,902,,0,,,
903,F03,地下鉄赤塚,,35.76998,139.644001,903,,0,,,
904,F04,平和台,,35.757555,139.6543,904,,0,,,
905,F05,氷川台,,35.74962,139.66547,905,,0,,,
906,F06,小竹向原,,35.743395,139.67952,906,,0,,,
907,F07,千川,,35.738175,139.6894,907,,0,,,
908,F08,要町,,35.733215,139.69848,908,,0,,,
909,F09,池袋,,35.730345,139.71115,909,,0,,,
910,F10,雑司が谷,,35.7202,139.714715,910,,0,,,
911,F11,西早稲田,,35.707806,139.70912,911,,0,,,
912,F12,東新宿,,35.699829,139.707846,912,,0,,,
913,F13,新宿三丁目,,35.690609,139.704727,913,,0,,,
914,F14,北参道,,35.678503,139.705469,914,,0,,,
915,F15,明治神宮前〈原宿〉,,35.668205,139.70524,915,,0,,,
916,F16,渋谷,,35.659092,139.70257,916,,0,,,
